City_ID,City,Lat,Lng,Max Temp,Humidity,Cloudiness,Wind Speed,Country,Date
0,Leningradskiy,69.3833,178.4167,-8.79,91,31,6.55,RU,2021-11-03 20:30:35
1,Aras,42.5617,-2.356,45.01,85,40,11.5,ES,2021-11-03 20:30:36
2,Vysokogornyy,50.1167,139.15,26.17,83,60,2.17,RU,2021-11-03 20:30:36
3,Mataura,-46.1927,168.8643,54.48,49,30,2.33,NZ,2021-11-03 20:30:36
4,Clyde River,70.4692,-68.5914,21.56,86,97,32.21,CA,2021-11-03 20:30:37
5,Korla,41.7597,86.1469,43.7,35,96,3.67,CN,2021-11-03 20:30:37
6,Carnarvon,-24.8667,113.6333,64.47,82,0,16.11,AU,2021-11-03 20:28:22
7,Henderson,36.0397,-114.9819,80.17,26,1,11.5,US,2021-11-03 20:27:08
8,Jalingo,8.8833,11.3667,81.9,60,67,4.12,NG,2021-11-03 20:30:37
9,Ganzhou,28.8184,115.4327,62.01,87,100,1.01,CN,2021-11-03 20:30:38
10,Albany,42.6001,-73.9662,48.31,55,97,1.01,US,2021-11-03 20:28:42
11,Durgapur,23.4833,87.3167,69.98,63,87,2.68,IN,2021-11-03 20:30:38
12,Cape Town,-33.9258,18.4232,61.27,80,40,6.91,ZA,2021-11-03 20:29:59
13,Tateyama,34.9833,139.8667,59.09,65,72,8.52,JP,2021-11-03 20:30:39
14,Genc,38.7507,40.5603,54.86,81,95,3.98,TR,2021-11-03 20:30:39
15,Punta Arenas,-53.15,-70.9167,55.51,47,0,24.16,CL,2021-11-03 20:28:19
16,Tuy Hoa,13.0833,109.3,74.28,93,100,4.07,VN,2021-11-03 20:26:55
17,Avarua,-21.2078,-159.775,77.05,73,40,10.36,CK,2021-11-03 20:28:38
18,Rikitea,-23.1203,-134.9692,73.8,73,100,14.99,PF,2021-11-03 20:30:39
19,Jumla,29.2747,82.1838,38.8,58,4,4.34,NP,2021-11-03 20:30:40
20,Arraial Do Cabo,-22.9661,-42.0278,73.36,83,40,11.5,BR,2021-11-03 20:27:24
21,Nueva Gerona,21.8833,-82.8,81.75,55,72,7.07,CU,2021-11-03 20:30:40
22,Castro,-24.7911,-50.0119,70.61,68,75,2.17,BR,2021-11-03 20:30:41
23,Corpus Christi,27.8006,-97.3964,84.76,63,75,7.0,US,2021-11-03 20:29:43
24,Galle,6.0367,80.217,79.5,83,97,10.09,LK,2021-11-03 20:30:41
25,Qaanaaq,77.484,-69.3632,4.96,59,0,8.41,GL,2021-11-03 20:30:41
26,Cascais,38.6979,-9.4215,56.52,69,0,1.99,PT,2021-11-03 20:30:42
27,Hobart,-42.8794,147.3294,56.12,92,20,0.0,AU,2021-11-03 20:30:42
28,Zhob,31.3411,69.4481,55.0,34,0,4.83,PK,2021-11-03 20:30:42
29,Hilo,19.7297,-155.09,83.25,68,40,4.61,US,2021-11-03 20:30:43
30,Mawlaik,23.6333,94.4167,69.01,97,40,1.5,MM,2021-11-03 20:30:43
31,Saskylakh,71.9167,114.0833,-8.59,93,69,9.17,RU,2021-11-03 20:30:44
32,Corbelia,-24.7989,-53.3067,87.15,71,43,6.44,BR,2021-11-03 20:30:44
33,Yerbogachen,61.2767,108.0108,-5.42,98,27,4.16,RU,2021-11-03 20:27:42
34,Acapulco,16.8634,-99.8901,84.22,71,96,7.16,MX,2021-11-03 20:29:31
35,Haines Junction,60.7522,-137.5108,35.55,75,81,2.3,CA,2021-11-03 20:30:45
36,Georgetown,5.4112,100.3354,78.73,88,20,0.0,MY,2021-11-03 20:30:45
37,Hermanus,-34.4187,19.2345,63.81,78,4,11.59,ZA,2021-11-03 20:27:11
38,Khatanga,71.9667,102.5,7.02,91,100,17.74,RU,2021-11-03 20:30:46
39,Chokurdakh,70.6333,147.9167,-9.92,99,94,6.6,RU,2021-11-03 20:30:46
40,Ketchikan,55.3422,-131.6461,48.67,87,75,9.22,US,2021-11-03 20:30:47
41,Jermuk,39.8417,45.6723,42.58,81,98,3.76,AM,2021-11-03 20:30:47
42,Sal Rei,16.1833,-22.9167,79.36,71,75,15.37,CV,2021-11-03 20:30:48
43,Bathsheba,13.2167,-59.5167,84.81,65,20,12.66,BB,2021-11-03 20:30:48
44,Monduli,-3.3,36.45,65.88,75,56,3.02,TZ,2021-11-03 20:30:48
45,Port Lincoln,-34.7333,135.8667,56.64,75,6,7.49,AU,2021-11-03 20:30:46
46,Pevek,69.7008,170.3133,-14.48,98,22,7.49,RU,2021-11-03 20:27:40
47,Carbonia,39.1672,8.5222,58.15,83,100,14.58,IT,2021-11-03 20:31:49
48,Ushuaia,-54.8,-68.3,47.86,66,75,23.02,AR,2021-11-03 20:27:15
49,Knysna,-34.0363,23.0471,58.78,67,0,4.43,ZA,2021-11-03 20:31:49
50,Dikson,73.5069,80.5464,15.35,93,83,7.72,RU,2021-11-03 20:27:58
51,Puertollano,38.6871,-4.1073,47.28,71,4,4.83,ES,2021-11-03 20:31:50
52,Pindobacu,-10.7417,-40.3608,76.03,80,100,2.8,BR,2021-11-03 20:31:50
53,Mount Gambier,-37.8333,140.7667,44.51,100,75,0.0,AU,2021-11-03 20:31:51
54,Avanigadda,16.0215,80.9181,73.98,97,88,5.53,IN,2021-11-03 20:31:51
55,Lebu,-37.6167,-73.65,54.84,61,3,9.62,CL,2021-11-03 20:31:06
56,Yauya,-8.9833,-77.3,56.48,62,97,1.81,PE,2021-11-03 20:31:51
57,Nikolskoye,59.7035,30.7861,45.88,89,100,9.42,RU,2021-11-03 20:31:52
58,Port Alfred,-33.5906,26.891,63.21,88,0,1.48,ZA,2021-11-03 20:31:52
59,Komsomolets,53.7453,62.0708,17.35,67,32,7.31,KZ,2021-11-03 20:31:53
60,Tombouctou,20.0,-3.0,85.5,14,4,7.54,ML,2021-11-03 20:31:53
61,Butaritari,3.0707,172.7902,83.17,71,100,15.73,KI,2021-11-03 20:31:54
62,Bluff,-46.6,168.3333,54.81,65,29,4.63,NZ,2021-11-03 20:31:54
63,Nicoya,10.1483,-85.452,85.55,78,100,7.16,CR,2021-11-03 20:31:54
64,Hasaki,35.7333,140.8333,50.4,56,73,8.23,JP,2021-11-03 20:31:55
65,Longyearbyen,78.2186,15.6401,21.04,68,75,21.85,SJ,2021-11-03 20:31:55
66,Iqaluit,63.7506,-68.5145,20.93,79,75,10.0,CA,2021-11-03 20:29:54
67,Belmonte,-15.8631,-38.8828,86.5,90,100,9.35,BR,2021-11-03 20:31:55
68,Sosnovka,56.255,51.2842,33.3,42,94,9.89,RU,2021-11-03 20:31:56
69,Xichang,27.8964,102.2634,49.66,88,3,0.65,CN,2021-11-03 20:31:56
70,Puerto Ayora,-0.7393,-90.3518,82.36,76,83,10.04,EC,2021-11-03 20:31:15
71,Vaini,-21.2,-175.2,80.76,94,75,8.05,TO,2021-11-03 20:31:57
72,Kapaa,22.0752,-159.319,80.92,74,75,4.0,US,2021-11-03 20:31:57
73,Yellowknife,62.456,-114.3525,42.42,87,40,10.36,CA,2021-11-03 20:31:57
74,Tual,-5.6667,132.75,84.33,74,60,13.87,ID,2021-11-03 20:31:58
75,Chodavaram,17.8333,82.95,75.04,90,100,3.4,IN,2021-11-03 20:31:58
76,Ilulissat,69.2167,-51.1,35.62,60,20,14.97,GL,2021-11-03 20:31:58
77,Saravan,39.7196,45.6483,43.45,72,98,4.83,AM,2021-11-03 20:31:58
78,Codrington,-38.2667,141.9667,55.09,85,16,7.38,AU,2021-11-03 20:31:59
79,Cururupu,-1.8283,-44.8683,83.43,67,89,5.06,BR,2021-11-03 20:27:00
80,Grand Gaube,-20.0064,57.6608,73.8,77,3,1.99,MU,2021-11-03 20:28:21
81,Huarmey,-10.0681,-78.1522,68.56,74,57,9.51,PE,2021-11-03 20:32:00
82,Brae,60.3964,-1.353,42.71,82,100,28.66,GB,2021-11-03 20:32:00
83,Mar Del Plata,-38.0023,-57.5575,66.22,99,40,10.0,AR,2021-11-03 20:29:24
84,Kedrovyy,56.1667,91.8167,-5.39,91,100,9.01,RU,2021-11-03 20:32:00
85,Wasco,35.5941,-119.341,72.0,63,1,4.61,US,2021-11-03 20:32:01
86,Igarape,-20.0703,-44.3017,87.4,68,48,2.55,BR,2021-11-03 20:32:02
87,Port Blair,11.6667,92.75,80.49,81,28,4.68,IN,2021-11-03 20:32:02
88,Columbus,39.9612,-82.9988,50.83,43,75,1.01,US,2021-11-03 20:28:21
89,Ust-Karsk,52.7011,118.8077,30.25,75,100,3.02,RU,2021-11-03 20:32:03
90,Ribeira Grande,38.5167,-28.7,68.4,94,75,23.02,PT,2021-11-03 20:28:18
91,Santiago,-33.4569,-70.6483,74.28,37,0,9.22,CL,2021-11-03 20:27:37
92,East London,-33.0153,27.9116,64.2,84,0,9.08,ZA,2021-11-03 20:32:04
93,Nalut,30.3333,10.85,74.43,22,4,12.8,LY,2021-11-03 20:32:05
94,Bria,6.5423,21.9863,71.37,90,99,3.36,CF,2021-11-03 20:32:05
95,Bredasdorp,-34.5322,20.0403,59.77,70,2,6.98,ZA,2021-11-03 20:33:05
96,San Juan,-31.5375,-68.5364,94.55,14,0,7.47,AR,2021-11-03 20:30:43
97,Borisoglebskiy,57.2586,39.1508,42.44,86,100,13.94,RU,2021-11-03 20:33:06
98,Souillac,-20.5167,57.5167,73.78,83,40,6.91,MU,2021-11-03 20:33:07
99,Turayf,31.6725,38.6637,62.85,59,0,11.5,SA,2021-11-03 20:33:07
100,Severo-Kurilsk,50.6789,156.125,36.63,79,50,3.51,RU,2021-11-03 20:33:08
101,Odweyne,9.4092,45.064,69.75,47,17,3.74,SO,2021-11-03 20:33:08
102,Katsuura,35.1333,140.3,59.18,65,92,9.33,JP,2021-11-03 20:32:15
103,Chuy,-33.6971,-53.4616,65.12,97,100,14.36,UY,2021-11-03 20:28:10
104,Esperance,-33.8667,121.9,51.64,74,12,7.54,AU,2021-11-03 20:33:08
105,Bud,39.447,-86.1758,50.22,43,88,2.57,US,2021-11-03 20:33:09
106,Busselton,-33.65,115.3333,42.08,87,89,4.88,AU,2021-11-03 20:33:09
107,Half Moon Bay,37.4636,-122.4286,76.5,73,1,2.77,US,2021-11-03 20:29:59
108,Arraias,-12.9288,-46.9437,77.13,65,100,4.63,BR,2021-11-03 20:33:10
109,Coquimbo,-29.9533,-71.3436,58.73,77,90,9.22,CL,2021-11-03 20:33:10
110,Jamestown,42.097,-79.2353,43.52,66,40,8.99,US,2021-11-03 20:28:11
111,Vozhega,60.4725,40.2213,38.43,91,82,9.64,RU,2021-11-03 20:33:10
112,Olafsvik,64.8945,-23.7142,42.19,81,99,21.65,IS,2021-11-03 20:33:11
113,Jinchang,38.4953,102.1739,41.56,42,0,2.1,CN,2021-11-03 20:33:11
114,Sapa,5.1544,120.3241,81.34,80,100,4.54,PH,2021-11-03 20:33:12
115,Rafaela,-31.2503,-61.4867,84.06,41,0,3.0,AR,2021-11-03 20:33:12
116,Lagoa,39.05,-27.9833,67.6,85,100,21.59,PT,2021-11-03 20:33:13
117,Angoram,-4.0625,144.0661,74.26,100,100,1.39,PG,2021-11-03 20:33:13
118,Cayenne,4.9333,-52.3333,86.04,79,20,3.0,GF,2021-11-03 20:30:05
119,Namibe,-15.1961,12.1522,64.51,85,29,1.43,AO,2021-11-03 20:33:13
120,Filingue,14.3521,3.3168,88.0,13,17,4.76,NE,2021-11-03 20:33:14
121,Revelstoke,50.9832,-118.2023,41.02,87,90,0.0,CA,2021-11-03 20:30:44
122,San Patricio,28.017,-97.5169,84.61,59,99,6.62,US,2021-11-03 20:33:14
123,Whitehorse,60.7161,-135.0538,34.57,69,75,17.0,CA,2021-11-03 20:30:44
124,Tingo Maria,-9.2895,-76.0088,78.15,91,97,0.96,PE,2021-11-03 20:33:15
125,Klaksvik,62.2266,-6.589,38.32,66,99,17.49,FO,2021-11-03 20:33:15
126,Hithadhoo,-0.6,73.0833,82.15,76,85,15.93,MV,2021-11-03 20:33:15
127,Upernavik,72.7868,-56.1549,24.49,92,100,6.96,GL,2021-11-03 20:33:16
128,Samarai,-10.6167,150.6667,81.59,72,80,13.13,PG,2021-11-03 20:33:16
129,Radomsko,51.0671,19.4448,50.38,76,100,11.65,PL,2021-11-03 20:33:16
130,Binucayan,8.25,125.7167,72.36,99,50,1.07,PH,2021-11-03 20:33:17
131,Bethel,41.3712,-73.414,51.03,56,40,6.06,US,2021-11-03 20:33:17
132,Asau,46.4333,26.4,47.32,63,96,2.71,RO,2021-11-03 20:33:17
133,Barrow,71.2906,-156.7887,24.82,86,90,12.66,US,2021-11-03 20:33:18
134,Thompson,55.7435,-97.8558,35.76,69,1,3.44,CA,2021-11-03 20:33:18
135,Bilma,18.6853,12.9164,83.8,16,1,5.66,NE,2021-11-03 20:33:18
136,Bambous Virieux,-20.3428,57.7575,73.65,83,40,6.91,MU,2021-11-03 20:33:19
137,Lempaala,61.3167,23.75,44.1,100,90,8.05,FI,2021-11-03 20:33:19
138,Mercedes,-34.6515,-59.4307,80.85,67,83,11.36,AR,2021-11-03 20:33:19
139,Qaqortoq,60.7167,-46.0333,36.1,94,100,5.88,GL,2021-11-03 20:33:20
140,Saint-Philippe,-21.3585,55.7679,72.99,80,4,6.64,RE,2021-11-03 20:33:20
141,Lyubytino,58.8122,33.3922,44.26,90,100,10.87,RU,2021-11-03 20:34:20
142,Tigil,57.8,158.6667,30.27,89,44,15.86,RU,2021-11-03 20:34:21
143,Tapes,-30.6733,-51.3958,72.16,85,75,7.49,BR,2021-11-03 20:30:09
144,Ancud,-41.8697,-73.8203,55.42,82,84,16.91,CL,2021-11-03 20:31:44
145,Moussoro,13.6408,16.4901,89.38,14,1,11.77,TD,2021-11-03 20:34:21
146,Umba,66.6871,34.3429,37.62,91,100,9.04,RU,2021-11-03 20:34:22
147,Salalah,17.0151,54.0924,78.89,57,0,3.44,OM,2021-11-03 20:34:22
148,Tiksi,71.6872,128.8694,-10.35,98,92,9.19,RU,2021-11-03 20:34:22
149,Sitka,57.0531,-135.33,46.29,81,90,6.91,US,2021-11-03 20:34:23
150,Sao Joao Da Barra,-21.6403,-41.0511,77.09,85,33,16.84,BR,2021-11-03 20:34:23
151,Kieta,-6.2167,155.6333,80.29,84,100,3.36,PG,2021-11-03 20:34:24
152,Kruisfontein,-34.0033,24.7314,53.89,77,0,3.09,ZA,2021-11-03 20:34:24
153,Aksarka,66.5606,67.7975,25.97,88,99,15.88,RU,2021-11-03 20:34:24
154,Evensk,61.95,159.2333,11.77,86,100,3.8,RU,2021-11-03 20:34:25
155,Vardo,70.3705,31.1107,41.2,93,75,16.11,NO,2021-11-03 20:34:25
156,Kahului,20.8947,-156.47,85.26,73,40,21.85,US,2021-11-03 20:34:25
157,Los Llanos De Aridane,28.6585,-17.9182,67.75,77,75,7.0,ES,2021-11-03 20:34:26
158,Wawa,9.9022,4.4192,80.58,44,22,3.44,NG,2021-11-03 20:34:26
159,Rocha,-34.4833,-54.3333,65.01,97,100,10.0,UY,2021-11-03 20:34:27
160,Panguna,-6.3164,155.4848,72.48,91,90,2.19,PG,2021-11-03 20:34:27
161,Marystown,47.1666,-55.1483,48.85,100,42,2.86,CA,2021-11-03 20:31:33
162,Kenai,60.5544,-151.2583,39.15,97,75,0.0,US,2021-11-03 20:34:28
163,Manggar,-2.8833,108.2667,78.93,84,100,3.27,ID,2021-11-03 20:34:28
164,Mendi,-6.1761,143.6513,56.73,94,66,2.01,PG,2021-11-03 20:34:29
165,Yar-Sale,66.8333,70.8333,26.37,86,100,13.65,RU,2021-11-03 20:34:29
166,Morococha,-11.5997,-76.1411,41.29,82,100,4.5,PE,2021-11-03 20:34:30
167,Assiniboia,49.6334,-105.9845,51.71,37,3,5.75,CA,2021-11-03 20:34:30
168,Qujing,25.4833,103.7833,51.82,94,19,6.46,CN,2021-11-03 20:34:30
169,Bedford,52.1346,-0.4663,47.01,86,66,13.0,GB,2021-11-03 20:31:23
170,Along,28.1667,94.7667,56.61,72,1,1.72,IN,2021-11-03 20:29:36
171,Saa,4.3667,11.45,70.02,96,100,0.45,CM,2021-11-03 20:34:31
172,Sao Filipe,14.8961,-24.4956,79.9,73,97,6.02,CV,2021-11-03 20:34:31
173,Victoria,22.2855,114.1577,77.32,86,97,3.0,HK,2021-11-03 20:34:32
174,Hofn,64.2539,-15.2082,37.15,61,99,8.39,IS,2021-11-03 20:34:32
175,Eureka,40.8021,-124.1637,75.36,60,100,10.0,US,2021-11-03 20:34:32
176,Miles City,46.4083,-105.8406,59.5,38,1,8.05,US,2021-11-03 20:34:33
177,Kodiak,57.79,-152.4072,42.31,70,90,9.22,US,2021-11-03 20:34:33
178,Moose Factory,51.2585,-80.6094,32.0,80,75,8.05,CA,2021-11-03 20:34:33
179,Komsomolskiy,40.4272,71.7189,52.52,50,75,13.8,UZ,2021-11-03 20:34:34
180,Alyangula,-13.8483,136.4192,75.07,100,18,0.0,AU,2021-11-03 20:34:34
181,Wajima,37.4,136.9,57.76,63,27,6.22,JP,2021-11-03 20:34:35
182,New Norfolk,-42.7826,147.0587,55.76,82,6,1.01,AU,2021-11-03 20:34:35
183,Lodwar,3.1191,35.5973,86.31,38,92,17.45,KE,2021-11-03 20:34:36
184,Shingu,33.7333,135.9833,53.15,66,76,5.95,JP,2021-11-03 20:32:06
185,Waingapu,-9.6567,120.2641,81.34,79,53,8.3,ID,2021-11-03 20:34:36
186,Mizdah,31.4451,12.9801,74.05,22,0,8.97,LY,2021-11-03 20:35:36
187,Bambanglipuro,-7.95,110.2833,76.55,90,84,3.85,ID,2021-11-03 20:35:37
188,Itanagar,27.1,93.6167,61.02,70,2,4.09,IN,2021-11-03 20:35:37
189,Ust-Kuyga,70.0167,135.6,-14.24,99,100,3.94,RU,2021-11-03 20:35:37
190,Rockhampton,-23.3833,150.5,67.89,73,35,9.22,AU,2021-11-03 20:35:38
191,Tsabong,-26.0217,22.401,75.49,18,7,11.01,BW,2021-11-03 20:35:38
192,Dingle,10.9995,122.6711,75.31,93,94,6.62,PH,2021-11-03 20:35:39
193,Atuona,-9.8,-139.0333,78.03,66,61,12.44,PF,2021-11-03 20:35:39
194,Margau,46.75,22.9667,44.15,69,100,5.55,RO,2021-11-03 20:35:40
195,Shashi,30.3072,112.2447,60.75,83,100,1.32,CN,2021-11-03 20:35:40
196,Kalengwa,-13.4659,25.0027,67.03,71,84,4.72,ZM,2021-11-03 20:35:40
197,Takoradi,4.8845,-1.7554,78.84,85,100,6.91,GH,2021-11-03 20:33:18
198,Yumen,40.2833,97.2,38.55,25,0,7.92,CN,2021-11-03 20:35:41
199,Yaan,7.3833,8.5667,80.02,66,90,4.7,NG,2021-11-03 20:35:41
200,Gopalpur,19.2667,84.9167,75.81,77,93,4.76,IN,2021-11-03 20:35:41
201,Tasiilaq,65.6145,-37.6368,30.36,82,24,8.3,GL,2021-11-03 20:35:42
202,Kalevala,65.2,31.1667,38.05,98,100,5.12,RU,2021-11-03 20:35:42
203,Sungairaya,0.7,108.9,77.68,89,100,2.75,ID,2021-11-03 20:35:42
204,Naron,43.5167,-8.1528,51.04,82,85,7.2,ES,2021-11-03 20:35:43
205,Vestmannaeyjar,63.4427,-20.2734,47.61,92,100,21.59,IS,2021-11-03 20:35:43
206,Gimli,50.6336,-96.9907,44.44,52,12,11.5,CA,2021-11-03 20:35:43
207,Kaitangata,-46.2817,169.8464,52.77,48,7,5.06,NZ,2021-11-03 20:35:44
208,Torbay,47.6666,-52.7314,46.76,75,40,2.3,CA,2021-11-03 20:35:37
209,Anqing,30.5092,117.0506,63.9,64,83,3.87,CN,2021-11-03 20:35:44
210,Port Elizabeth,-33.918,25.5701,57.49,88,0,4.61,ZA,2021-11-03 20:32:08
211,Fortuna,40.5982,-124.1573,75.09,61,75,8.01,US,2021-11-03 20:35:44
212,Storslett,69.7678,21.0247,40.82,88,100,8.41,NO,2021-11-03 20:35:45
213,Kralendijk,12.15,-68.2667,84.18,74,40,14.97,BQ,2021-11-03 20:35:45
214,Manoel Urbano,-8.8389,-69.2597,85.87,57,100,1.34,BR,2021-11-03 20:35:45
215,Khorramshahr,30.4397,48.1664,73.36,49,0,2.3,IR,2021-11-03 20:35:46
216,Shaunavon,49.6501,-108.4181,51.58,48,100,14.47,CA,2021-11-03 20:31:20
217,Gayny,60.3071,54.3241,25.36,92,34,6.6,RU,2021-11-03 20:35:46
218,Verkhnevilyuysk,63.4453,120.3167,10.65,94,97,8.48,RU,2021-11-03 20:35:46
219,Tuatapere,-46.1333,167.6833,54.82,50,7,1.54,NZ,2021-11-03 20:35:47
220,Norman Wells,65.282,-126.8329,15.84,92,90,3.44,CA,2021-11-03 20:31:03
221,Tazovskiy,67.4667,78.7,22.8,95,100,15.52,RU,2021-11-03 20:35:47
222,Buraydah,26.326,43.975,72.05,22,0,5.66,SA,2021-11-03 20:35:47
223,Zhangjiakou,40.81,114.8794,42.28,48,0,0.65,CN,2021-11-03 20:35:48
224,Gorontalo,0.5412,123.0595,74.97,94,54,2.95,ID,2021-11-03 20:35:48
225,Plouzane,48.3833,-4.6167,52.09,93,75,4.61,FR,2021-11-03 20:35:48
226,Tres Lagoas,-20.7511,-51.6783,82.63,54,97,5.91,BR,2021-11-03 20:35:04
227,Cabo San Lucas,22.8909,-109.9124,90.52,45,1,13.8,MX,2021-11-03 20:35:16
228,Lodja,-3.4833,23.4333,65.91,99,94,1.99,CD,2021-11-03 20:35:49
229,Deputatskiy,69.3,139.9,-3.93,96,100,4.45,RU,2021-11-03 20:35:49
230,Sorland,67.667,12.6934,41.07,84,81,8.48,NO,2021-11-03 20:36:50
231,Bengkulu,-3.8004,102.2655,74.86,90,100,3.71,ID,2021-11-03 20:34:43
232,Vila Velha,-20.3297,-40.2925,78.75,73,40,17.27,BR,2021-11-03 20:33:08
233,Saint Anthony,45.0205,-93.218,47.17,44,1,3.0,US,2021-11-03 20:36:50
234,Balakhta,55.38,91.6,3.43,87,100,8.9,RU,2021-11-03 20:36:50
235,Hobyo,5.3505,48.5268,80.26,74,45,8.46,SO,2021-11-03 20:36:51
236,Fairbanks,64.8378,-147.7164,34.61,91,90,0.0,US,2021-11-03 20:35:13
237,Berlevag,70.8578,29.0864,41.0,81,0,19.57,NO,2021-11-03 20:36:51
238,Loukhi,66.0764,33.0381,36.41,96,100,5.66,RU,2021-11-03 20:36:51
239,Kaeo,-35.1,173.7833,60.33,71,90,7.67,NZ,2021-11-03 20:36:52
240,Ponta Do Sol,32.6667,-17.1,73.0,75,100,7.36,PT,2021-11-03 20:36:52
241,Xilitla,21.3333,-98.9667,76.91,58,100,6.38,MX,2021-11-03 20:36:52
242,Raudeberg,61.9875,5.1352,45.27,71,8,4.27,NO,2021-11-03 20:36:53
243,Erzin,36.9559,36.2,65.12,80,2,3.11,TR,2021-11-03 20:36:53
244,Wukari,7.85,9.7833,81.63,59,88,4.74,NG,2021-11-03 20:36:53
245,North Augusta,33.5018,-81.9651,63.72,54,1,8.05,US,2021-11-03 20:34:45
246,Faya,18.3851,42.4509,59.11,32,5,3.69,SA,2021-11-03 20:36:54
247,Gigmoto,13.7796,124.39,81.01,86,97,12.93,PH,2021-11-03 20:36:54
248,Guerrero Negro,27.9769,-114.0611,72.55,62,3,13.44,MX,2021-11-03 20:36:55
249,Quatre Cocos,-20.2078,57.7625,73.51,79,28,9.06,MU,2021-11-03 20:36:55
250,Nioro,13.35,-15.75,78.89,74,17,7.16,GM,2021-11-03 20:36:55
251,Pitimbu,-7.4706,-34.8086,82.99,75,29,12.59,BR,2021-11-03 20:36:56
252,Ongandjera,-17.8833,15.0667,77.81,18,3,18.72,NA,2021-11-03 20:36:56
253,Port Hardy,50.6996,-127.4199,53.6,87,90,20.71,CA,2021-11-03 20:36:56
254,Saint-Augustin,51.226,-58.6502,41.36,54,4,11.45,CA,2021-11-03 20:36:57
255,Mamallapuram,12.6264,80.1722,78.85,85,100,8.23,IN,2021-11-03 20:36:57
256,Amarante Do Maranhao,-5.5667,-46.7422,78.35,80,98,3.11,BR,2021-11-03 20:36:57
257,Tuktoyaktuk,69.4541,-133.0374,19.4,93,75,8.05,CA,2021-11-03 20:36:57
258,Spring Valley,36.108,-115.245,78.42,27,20,1.99,US,2021-11-03 20:36:58
259,Damietta,31.4165,31.8133,75.09,67,0,9.73,EG,2021-11-03 20:36:58
260,Pisco,-13.7,-76.2167,68.05,73,0,11.5,PE,2021-11-03 20:34:59
261,Isangel,-19.55,169.2667,71.71,78,56,3.44,VU,2021-11-03 20:36:59
262,Dhidhdhoo,6.8833,73.1,81.39,80,100,16.35,MV,2021-11-03 20:36:59
263,Tatarsk,55.219,75.9828,1.06,94,14,3.78,RU,2021-11-03 20:36:59
264,Papara,-3.9839,-38.7273,81.0,72,9,5.53,BR,2021-11-03 20:37:00
265,Atar,20.5169,-13.0499,84.51,14,34,8.34,MR,2021-11-03 20:37:00
266,Otane,-39.8833,176.6333,51.01,98,100,9.82,NZ,2021-11-03 20:37:01
267,Naro Moru,-0.1676,37.0213,54.86,85,45,0.65,KE,2021-11-03 20:37:01
268,Yankton,42.8711,-97.3973,56.12,58,75,4.61,US,2021-11-03 20:36:29
269,Ponca City,36.707,-97.0856,52.29,63,90,3.44,US,2021-11-03 20:37:02
270,Te Anau,-45.4167,167.7167,53.49,65,18,0.58,NZ,2021-11-03 20:37:03
271,Thinadhoo,0.5333,72.9333,83.14,73,77,17.4,MV,2021-11-03 20:37:03
272,Moranbah,-22.0016,148.0466,69.91,68,2,16.49,AU,2021-11-03 20:37:04
273,Ostrovnoy,68.0531,39.5131,37.81,92,95,25.68,RU,2021-11-03 20:37:04
274,Flinders,-34.5833,150.8552,66.06,85,100,1.99,AU,2021-11-03 20:37:04
275,Talcahuano,-36.7167,-73.1167,56.88,67,75,14.97,CL,2021-11-03 20:37:05
276,Marzuq,14.4,46.4667,70.68,25,4,2.04,YE,2021-11-03 20:37:05
277,Pangnirtung,66.1451,-65.7125,23.0,68,75,0.0,CA,2021-11-03 20:38:05
278,Matagami,49.7502,-77.6328,28.51,86,75,8.05,CA,2021-11-03 20:38:06
279,Fez,34.0372,-4.9998,57.45,94,75,10.36,MA,2021-11-03 20:38:06
280,Luau,-10.7073,22.2247,68.43,81,99,4.9,AO,2021-11-03 20:38:07
281,Jilin,43.0,126.0,37.71,95,76,4.14,CN,2021-11-03 20:38:07
282,Batemans Bay,-35.7167,150.1833,66.2,81,100,4.0,AU,2021-11-03 20:38:07
283,Airai,-8.9266,125.4092,60.84,90,89,3.4,TL,2021-11-03 20:38:07
284,Muisne,0.6,-80.0333,78.91,83,95,10.94,EC,2021-11-03 20:38:08
285,Chibombo,-14.6569,28.0706,74.35,48,54,1.95,ZM,2021-11-03 20:38:09
286,Saint George,37.1041,-113.5841,75.67,33,1,3.0,US,2021-11-03 20:36:11
287,Chissamba,-12.1667,17.3333,68.72,67,100,2.77,AO,2021-11-03 20:38:09
288,Shimoda,34.6667,138.95,55.11,75,24,6.15,JP,2021-11-03 20:38:09
289,Dobarlau,45.7333,25.8833,51.58,73,90,4.25,RO,2021-11-03 20:38:10
290,Mountain Home,43.133,-115.6912,61.93,82,40,18.41,US,2021-11-03 20:37:48
291,Sinnamary,5.3833,-52.95,81.37,73,99,9.93,GF,2021-11-03 20:38:10
292,Aksaray,38.3726,34.0254,44.19,80,11,5.01,TR,2021-11-03 20:38:11
293,Laguna,38.421,-121.4238,76.01,65,1,1.99,US,2021-11-03 20:38:11
294,Zanjan,36.6736,48.4787,52.86,65,11,1.28,IR,2021-11-03 20:38:11
295,Edd,13.9297,41.6925,84.04,52,6,14.83,ER,2021-11-03 20:38:12
296,Usinsk,65.9939,57.5281,30.67,95,100,21.52,RU,2021-11-03 20:38:12
297,Gaoua,10.2992,-3.2508,82.83,37,13,1.1,BF,2021-11-03 20:38:12
298,Tura,25.5198,90.2201,62.85,91,5,3.18,IN,2021-11-03 20:38:13
299,Svetlogorsk,52.6333,29.7333,41.81,90,7,7.9,BY,2021-11-03 20:38:13
300,Merauke,-8.4667,140.3333,78.15,88,20,10.83,ID,2021-11-03 20:38:13
301,Husavik,66.0449,-17.3389,40.91,77,88,18.97,IS,2021-11-03 20:38:13
302,Frontera,26.9333,-101.45,78.33,57,100,1.99,MX,2021-11-03 20:38:14
303,Grindavik,63.8424,-22.4338,43.27,87,90,21.85,IS,2021-11-03 20:38:14
304,Marienburg,54.0359,19.0266,47.95,88,49,6.44,PL,2021-11-03 20:38:14
305,Cherskiy,68.75,161.3,-18.87,98,85,6.49,RU,2021-11-03 20:38:15
306,Faanui,-16.4833,-151.75,78.31,79,14,7.49,PF,2021-11-03 20:38:15
307,San Joaquin,37.9333,-121.3011,74.79,64,1,3.44,US,2021-11-03 20:38:15
308,Limenaria,40.6261,24.5786,59.94,83,3,2.53,GR,2021-11-03 20:37:05
309,Narsaq,60.9167,-46.05,35.82,98,100,4.34,GL,2021-11-03 20:38:16
310,Diebougou,10.9667,-3.25,84.58,33,5,1.16,BF,2021-11-03 20:38:16
311,Lompoc,34.6391,-120.4579,85.01,64,1,6.91,US,2021-11-03 20:34:43
312,Nhulunbuy,-12.2333,136.7667,79.41,89,7,0.0,AU,2021-11-03 20:38:17
313,Ucluelet,48.9329,-125.5528,54.09,92,100,1.99,CA,2021-11-03 20:37:57
314,Punta Alta,-38.8759,-62.0736,83.19,35,65,19.24,AR,2021-11-03 20:38:17
315,Rundu,-17.9333,19.7667,83.5,19,100,3.58,NA,2021-11-03 20:37:08
316,Keti Bandar,24.1447,67.4497,79.02,53,3,3.31,PK,2021-11-03 20:38:17
317,Lukulu,-14.3707,23.242,72.41,64,99,4.27,ZM,2021-11-03 20:38:18
318,Okha,53.5739,142.9478,31.59,93,45,11.63,RU,2021-11-03 20:38:18
319,Acarau,-2.8856,-40.12,80.78,73,2,15.05,BR,2021-11-03 20:38:18
320,Ahipara,-35.1667,173.1667,57.72,71,80,5.77,NZ,2021-11-03 20:38:19
321,Beaverlodge,55.2166,-119.4361,40.35,61,91,5.61,CA,2021-11-03 20:39:19
322,Abu Samrah,35.3029,37.1841,62.15,65,0,4.83,SY,2021-11-03 20:39:19
323,Jian,27.1172,114.9793,62.96,98,100,2.71,CN,2021-11-03 20:39:20
324,Muromtsevo,56.3724,75.2418,-1.05,98,40,4.65,RU,2021-11-03 20:39:20
325,Dali,25.7,100.1833,47.91,85,1,4.47,CN,2021-11-03 20:39:20
326,Leshukonskoye,64.8989,45.7622,36.97,91,100,11.81,RU,2021-11-03 20:39:21
327,Ola,59.5833,151.2833,21.15,93,100,4.32,RU,2021-11-03 20:39:21
328,Cauquenes,-35.9671,-72.3225,53.82,58,100,8.63,CL,2021-11-03 20:39:21
329,Birjand,32.8663,59.2211,50.47,29,0,4.61,IR,2021-11-03 20:39:22
330,Cockburn Town,21.4612,-71.1419,80.56,78,40,6.91,TC,2021-11-03 20:39:22
331,Nanaimo,49.1663,-123.936,54.82,96,90,3.0,CA,2021-11-03 20:38:38
332,Cabedelo,-6.9811,-34.8339,83.07,74,26,12.8,BR,2021-11-03 20:39:22
333,Mount Isa,-20.7333,139.5,71.37,83,8,2.3,AU,2021-11-03 20:39:23
334,Warmbad,-28.45,18.7333,69.75,21,1,14.29,NA,2021-11-03 20:39:23
335,Ambilobe,-13.2,49.05,74.57,86,14,3.0,MG,2021-11-03 20:39:24
336,Novobiryusinskiy,56.9578,97.7076,5.16,84,100,10.42,RU,2021-11-03 20:39:24
337,Mikkeli,61.6886,27.2723,42.91,93,90,8.05,FI,2021-11-03 20:39:24
338,Corinto,37.9407,22.9573,66.69,84,0,1.92,GR,2021-11-03 20:39:25
339,Byron Bay,-28.65,153.6167,67.05,67,98,3.6,AU,2021-11-03 20:39:25
340,Dillon,34.4166,-79.3712,59.2,38,94,11.48,US,2021-11-03 20:39:00
341,Puerto Baquerizo Moreno,-0.9,-89.6,76.19,65,40,19.57,EC,2021-11-03 20:39:25
342,Bukama,-9.2,25.85,69.55,95,38,2.53,CD,2021-11-03 20:39:26
343,Ugoofaaru,5.6667,73.0,81.86,79,96,18.9,MV,2021-11-03 20:39:26
344,Shakawe,-18.3667,21.85,86.18,18,100,2.71,BW,2021-11-03 20:39:26
345,Balkhash,46.844,74.9804,15.24,58,0,17.4,KZ,2021-11-03 20:39:27
346,Inta,66.0317,60.1659,29.3,89,100,25.81,RU,2021-11-03 20:39:27
347,Ixtapa,20.7,-105.2,87.22,72,100,4.0,MX,2021-11-03 20:39:27
348,Oktyabrskiy,54.4815,53.471,27.27,34,0,10.6,RU,2021-11-03 20:39:27
349,Sungaipenuh,-2.0833,101.3833,63.9,98,92,0.69,ID,2021-11-03 20:39:28
350,Rosemont,38.5518,-121.3647,76.15,67,1,4.61,US,2021-11-03 20:39:28
351,Bintulu,3.1667,113.0333,73.81,100,40,0.0,MY,2021-11-03 20:39:29
352,Warrington,53.3925,-2.5802,48.24,83,20,4.0,GB,2021-11-03 20:39:29
353,Luanda,-8.8368,13.2343,77.0,78,0,11.5,AO,2021-11-03 20:37:35
354,Fort Stewart,31.8722,-81.61,69.89,61,75,3.44,US,2021-11-03 20:39:29
355,Provideniya,64.3833,-173.3,11.39,81,100,12.53,RU,2021-11-03 20:39:30
356,Moche,-8.1711,-79.0092,66.38,72,0,11.5,PE,2021-11-03 20:39:30
357,Pangody,65.85,74.4859,20.91,94,100,13.51,RU,2021-11-03 20:39:31
358,Yebaishou,41.3975,119.6408,42.46,72,0,3.58,CN,2021-11-03 20:39:31
359,Mahebourg,-20.4081,57.7,73.69,83,40,6.91,MU,2021-11-03 20:39:31
360,Waddan,29.1614,16.139,77.54,19,0,5.7,LY,2021-11-03 20:39:31
361,Stornoway,58.2093,-6.3865,42.93,81,75,14.97,GB,2021-11-03 20:39:32
362,Awjilah,29.1081,21.2869,77.97,23,0,8.19,LY,2021-11-03 20:39:32
363,Yeppoon,-23.1333,150.7333,67.78,57,21,14.0,AU,2021-11-03 20:39:32
364,Yerofey Pavlovich,53.9667,121.9667,25.12,95,100,3.06,RU,2021-11-03 20:39:33
365,Iralaya,15.0,-83.2333,81.88,78,78,5.5,HN,2021-11-03 20:39:33
366,Solnechnyy,50.7214,136.6319,30.76,45,100,2.77,RU,2021-11-03 20:40:33
367,Koumac,-20.5667,164.2833,74.1,64,2,5.55,NC,2021-11-03 20:40:34
368,Borogontsy,62.6683,131.1683,20.21,96,100,7.18,RU,2021-11-03 20:40:34
369,Lac Du Bonnet,50.2536,-96.0612,41.61,38,28,7.72,CA,2021-11-03 20:40:34
370,Namatanai,-3.6667,152.4333,81.21,81,89,7.74,PG,2021-11-03 20:40:34
371,San Carlos,9.6612,-68.5827,86.9,62,61,0.69,VE,2021-11-03 20:40:35
372,Westport,41.1415,-73.3579,53.42,49,40,1.01,US,2021-11-03 20:40:35
373,Meadow Lake,34.8014,-106.5436,66.33,24,13,9.15,US,2021-11-03 20:40:35
374,Mau,25.95,83.55,67.82,52,0,4.07,IN,2021-11-03 20:40:36
375,Oistins,13.0667,-59.5333,84.29,65,20,12.66,BB,2021-11-03 20:40:36
376,Hami,42.8,93.45,45.41,32,0,1.01,CN,2021-11-03 20:40:36
377,Miastko,54.0028,16.9826,42.08,89,90,4.9,PL,2021-11-03 20:38:41
378,Ventspils,57.3894,21.5606,49.93,93,90,16.11,LV,2021-11-03 20:40:37
379,Kavaratti,10.5669,72.642,81.57,78,100,11.45,IN,2021-11-03 20:40:37
380,Alice Springs,-23.7,133.8833,65.75,100,97,0.0,AU,2021-11-03 20:40:13
381,Ciudad Bolivar,8.1222,-63.5497,88.95,51,69,9.57,VE,2021-11-03 20:40:37
382,Kuruman,-27.4524,23.4325,63.99,20,1,10.33,ZA,2021-11-03 20:40:38
383,Pundaguitan,6.3711,126.1689,82.35,76,40,3.65,PH,2021-11-03 20:40:38
384,Kamenka,51.3223,42.7678,46.4,60,100,17.56,RU,2021-11-03 20:40:38
385,Fonte Boa,-2.4959,-66.2662,87.93,61,71,0.96,BR,2021-11-03 20:40:39
386,Zheleznodorozhnyy,55.7503,38.0042,46.62,89,100,12.24,RU,2021-11-03 20:40:39
387,Vianopolis,-16.7419,-48.5164,69.49,85,100,7.99,BR,2021-11-03 20:40:40
388,Jieshi,22.8134,115.8257,72.39,83,87,13.11,CN,2021-11-03 20:40:40
389,Nome,64.5011,-165.4064,26.67,80,75,6.91,US,2021-11-03 20:40:40
390,Petropavlovsk-Kamchatskiy,53.0452,158.6483,21.79,80,0,8.95,RU,2021-11-03 20:40:41
391,Porto Walter,-8.2686,-72.7439,82.76,63,88,5.32,BR,2021-11-03 20:40:41
392,Deep River,46.1001,-77.4995,39.43,44,99,4.63,CA,2021-11-03 20:40:41
393,Kungurtug,50.5994,97.5228,1.83,77,97,4.56,RU,2021-11-03 20:40:41
394,Nampula,-15.1165,39.2666,78.75,61,0,14.97,MZ,2021-11-03 20:40:42
395,Mayumba,-3.432,10.6554,76.68,90,56,5.55,GA,2021-11-03 20:40:42
396,Brownsville,25.9018,-97.4975,87.91,58,40,5.99,US,2021-11-03 20:40:42
397,Touros,-5.1989,-35.4608,83.3,75,6,12.68,BR,2021-11-03 20:40:43
398,Shitanjing,39.2342,106.3439,41.52,35,0,5.26,CN,2021-11-03 20:40:43
399,Shaowu,27.3409,117.4831,63.9,99,100,2.13,CN,2021-11-03 20:40:43
400,Kodinsk,58.6881,99.1844,7.63,89,100,8.43,RU,2021-11-03 20:40:43
401,Tjome,59.1109,10.3933,44.13,100,100,5.75,NO,2021-11-03 20:40:44
402,Bestobe,52.4994,73.0975,12.42,90,77,5.37,KZ,2021-11-03 20:40:44
403,Batagay-Alyta,67.8006,130.4114,-15.7,91,22,5.28,RU,2021-11-03 20:40:44
404,Kumylzhenskaya,49.8809,42.5898,49.05,58,100,13.96,RU,2021-11-03 20:40:45
405,Hamilton,39.1834,-84.5333,51.6,43,40,1.01,US,2021-11-03 20:40:45
406,Severnyy,50.677,36.5532,51.84,93,90,8.95,RU,2021-11-03 20:40:45
407,College,64.8569,-147.8028,34.59,91,75,3.44,US,2021-11-03 20:40:38
408,Lavrentiya,65.5833,-171.0,23.99,94,100,11.05,RU,2021-11-03 20:40:46
409,Csorvas,46.6333,20.8333,55.58,85,100,14.7,HU,2021-11-03 20:40:46
410,Changji,44.0167,87.3167,23.79,93,90,6.71,CN,2021-11-03 20:40:46
411,Bilibino,68.0546,166.4372,-22.86,100,67,2.91,RU,2021-11-03 20:40:47
412,Adrar,20.5022,-10.0711,79.95,15,0,7.92,MR,2021-11-03 20:40:47
413,Geraldton,-28.7667,114.6,54.01,87,0,9.22,AU,2021-11-03 20:40:47
414,Nanortalik,60.1432,-45.2371,38.25,88,100,6.38,GL,2021-11-03 20:41:48
415,Taldan,53.6667,124.8,25.95,92,100,3.0,RU,2021-11-03 20:41:48
416,Pupiales,0.8714,-77.6403,54.45,89,95,3.89,CO,2021-11-03 20:41:48
417,Sinfra,6.6167,-5.9167,76.37,92,94,3.36,CI,2021-11-03 20:41:49
418,Grafton,42.207,-71.6856,50.83,46,40,1.99,US,2021-11-03 20:41:49
419,Toguchin,55.2353,84.3858,-4.65,100,97,3.29,RU,2021-11-03 20:41:49
420,Talakan,50.3167,130.3667,32.65,93,96,4.68,RU,2021-11-03 20:41:49
421,El Jicaro,14.9167,-89.9,83.73,74,93,4.56,GT,2021-11-03 20:41:50
422,Dondo,-19.6094,34.7431,78.31,94,1,3.29,MZ,2021-11-03 20:41:50
423,Shubarshi,48.5872,57.1869,26.38,32,0,15.52,KZ,2021-11-03 20:41:50
424,Roald,62.5833,6.1333,45.34,93,0,3.44,NO,2021-11-03 20:41:51
425,Huallanca,-9.8993,-76.9417,53.04,74,98,1.45,PE,2021-11-03 20:41:51
426,Chimbote,-9.0853,-78.5783,67.05,74,56,8.66,PE,2021-11-03 20:41:51
427,Harindanga,22.0383,88.3214,76.98,70,41,5.1,IN,2021-11-03 20:41:52
428,Chapada Dos Guimaraes,-15.4606,-55.7497,73.06,90,100,2.35,BR,2021-11-03 20:41:52
429,Ponta Delgada,37.7333,-25.6667,67.5,94,75,13.8,PT,2021-11-03 20:41:44
430,Quchan,37.106,58.5095,54.93,63,100,3.87,IR,2021-11-03 20:41:52
431,Cidreira,-30.1811,-50.2056,68.59,94,100,16.87,BR,2021-11-03 20:36:57
432,Broken Hill,-31.95,141.4333,56.91,77,40,13.8,AU,2021-11-03 20:41:53
433,Bagdarin,54.4333,113.6,23.04,92,82,2.59,RU,2021-11-03 20:41:53
434,Aden,12.7794,45.0367,82.31,50,7,2.3,YE,2021-11-03 20:37:38
435,La Asuncion,11.0333,-63.8628,81.14,78,100,12.48,VE,2021-11-03 20:41:53
436,Kavieng,-2.5744,150.7967,82.31,80,100,15.48,PG,2021-11-03 20:41:54
437,Mehamn,71.0357,27.8492,41.18,81,0,14.97,NO,2021-11-03 20:41:54
438,Syasstroy,60.1367,32.5691,44.62,86,100,13.94,RU,2021-11-03 20:41:54
439,Vicar,36.8316,-2.6427,59.22,41,34,8.16,ES,2021-11-03 20:41:55
440,Coruripe,-10.1256,-36.1756,79.38,84,83,18.19,BR,2021-11-03 20:41:55
441,Bonoua,5.2741,-3.595,82.02,88,59,5.17,CI,2021-11-03 20:41:55
442,San Andres,12.5847,-81.7006,86.02,70,20,10.36,CO,2021-11-03 20:41:55
443,Juneau,58.3019,-134.4197,44.83,93,90,8.05,US,2021-11-03 20:41:56
444,Bodden Town,19.2833,-81.25,86.0,79,40,1.01,KY,2021-11-03 20:41:56
445,Amuntai,-2.4177,115.2494,74.37,99,99,2.01,ID,2021-11-03 20:41:56
446,Cairns,-16.9167,145.7667,75.07,97,40,4.61,AU,2021-11-03 20:41:57
447,Margate,51.3813,1.3862,48.69,86,100,5.01,GB,2021-11-03 20:37:55
448,Ndioum,16.5129,-14.6471,94.05,19,4,7.63,SN,2021-11-03 20:41:57
449,Patrocinio,-18.9439,-46.9925,84.52,63,100,3.38,BR,2021-11-03 20:41:58
450,Itoman,26.1247,127.6694,69.82,68,20,5.75,JP,2021-11-03 20:41:58
451,Hambantota,6.1241,81.1185,78.96,85,100,12.41,LK,2021-11-03 20:41:58
452,Mahibadhoo,3.7833,72.9667,82.45,78,100,20.2,MV,2021-11-03 20:41:58
453,Hovd,48.0056,91.6419,12.09,25,100,9.95,MN,2021-11-03 20:41:59
454,Weligama,5.9667,80.4167,78.13,87,100,8.72,LK,2021-11-03 20:41:59
455,Nishihara,26.1842,127.7558,69.08,71,20,5.75,JP,2021-11-03 20:42:00
456,Great Yarmouth,52.6083,1.7305,48.94,81,100,18.12,GB,2021-11-03 20:38:35
457,Baltiysk,54.6538,19.911,46.38,82,31,10.13,RU,2021-11-03 20:42:00
458,Guiren,33.6697,118.1889,58.01,76,25,2.44,CN,2021-11-03 20:42:01
459,Poum,-20.2333,164.0167,72.61,71,19,7.4,NC,2021-11-03 20:42:01
460,Sines,37.9562,-8.8698,57.29,71,5,8.99,PT,2021-11-03 20:42:02
461,San Cristobal,7.7669,-72.225,77.18,65,100,1.5,VE,2021-11-03 20:43:03
462,Palauig,15.435,119.9045,78.85,74,49,3.71,PH,2021-11-03 20:43:03
463,Fort Nelson,58.8053,-122.7002,24.39,74,40,2.3,CA,2021-11-03 20:41:43
464,Altay,47.8667,88.1167,6.55,67,60,5.08,CN,2021-11-03 20:43:04
465,Naliya,23.2667,68.8333,78.98,33,35,6.58,IN,2021-11-03 20:43:04
466,Mangrol,21.1167,70.1167,79.36,58,100,5.14,IN,2021-11-03 20:43:04
467,Lithakia,37.7167,20.8333,64.58,76,1,11.59,GR,2021-11-03 20:43:05
468,Havoysund,70.9963,24.6622,41.88,88,100,20.98,NO,2021-11-03 20:43:05
469,Makakilo City,21.3469,-158.0858,82.62,68,90,5.75,US,2021-11-03 20:43:05
470,Hargeysa,9.56,44.065,64.85,50,16,7.9,SO,2021-11-03 20:43:06
471,Zaltan,32.947,11.8665,79.3,30,0,8.77,LY,2021-11-03 20:43:06
472,Augusto Correa,-1.0217,-46.635,79.75,81,37,5.17,BR,2021-11-03 20:43:07
473,Swan Hill,-35.3378,143.5544,57.67,87,100,10.56,AU,2021-11-03 20:43:07
474,Camocim,-2.9022,-40.8411,81.14,74,2,13.85,BR,2021-11-03 20:43:07
475,General Bravo,25.8,-99.1667,87.66,33,96,10.8,MX,2021-11-03 20:43:08
476,Flin Flon,54.7682,-101.865,42.64,45,1,4.61,CA,2021-11-03 20:43:08
477,Miranda,3.2499,-76.2281,82.53,75,63,2.95,CO,2021-11-03 20:43:09
478,Kerrville,30.0474,-99.1403,55.67,89,90,6.91,US,2021-11-03 20:43:09
479,Viedma,-40.8135,-62.9967,80.83,36,81,22.57,AR,2021-11-03 20:43:09
480,Valdivia,-39.8142,-73.2459,59.09,73,5,8.19,CL,2021-11-03 20:43:10
481,Pacific Grove,36.6177,-121.9166,77.61,68,1,4.0,US,2021-11-03 20:38:43
482,Sur,22.5667,59.5289,75.65,63,45,2.71,OM,2021-11-03 20:43:10
483,Port Townsend,48.117,-122.7605,60.04,81,100,23.0,US,2021-11-03 20:43:11
484,Vega De Alatorre,20.0333,-96.6333,79.65,64,56,7.0,MX,2021-11-03 20:43:11
485,Algiers,36.7525,3.042,58.82,77,75,4.61,DZ,2021-11-03 20:41:14
486,Huanren,41.2647,125.3667,41.23,96,56,3.18,CN,2021-11-03 20:43:12
487,Kargasok,59.0556,80.8572,8.89,85,99,8.88,RU,2021-11-03 20:43:12
488,Melfi,40.9965,15.6514,67.5,77,94,14.34,IT,2021-11-03 20:43:12
489,Kupiskis,55.8333,24.9667,44.67,94,100,11.83,LT,2021-11-03 20:43:13
490,Henties Bay,-22.116,14.2845,57.85,87,9,7.47,NA,2021-11-03 20:43:13
491,Peniche,39.3558,-9.3811,56.62,86,27,14.07,PT,2021-11-03 20:43:13
492,Omboue,-1.5746,9.2618,76.39,92,100,6.51,GA,2021-11-03 20:43:14
493,Paita,-5.0892,-81.1144,72.16,76,26,16.93,PE,2021-11-03 20:43:14
494,Pilar Do Sul,-23.8131,-47.7164,68.97,79,29,9.66,BR,2021-11-03 20:43:14
495,Harper,4.375,-7.7169,78.21,84,90,6.17,LR,2021-11-03 20:43:14
496,Arman,59.7,150.1667,21.02,92,99,5.55,RU,2021-11-03 20:43:15
497,Takaka,-40.85,172.8,54.55,44,61,11.83,NZ,2021-11-03 20:43:15
498,Tessalit,20.1986,1.0114,84.27,13,0,9.15,ML,2021-11-03 20:43:15
499,Troitskoye,52.9821,84.6757,12.94,56,100,3.53,RU,2021-11-03 20:43:16
500,Camabatela,-8.1881,15.375,64.2,88,87,3.4,AO,2021-11-03 20:43:16
501,Duldurga,50.6761,113.5931,27.46,76,39,3.18,RU,2021-11-03 20:43:16
502,Soloneshnoye,51.6544,84.3197,4.19,87,90,3.58,RU,2021-11-03 20:43:17
503,Rio Gallegos,-51.6226,-69.2181,50.05,71,75,19.57,AR,2021-11-03 20:43:17
504,Skibbereen,51.55,-9.2667,44.4,76,12,15.73,IE,2021-11-03 20:43:17
505,Kasongo-Lunda,-6.4667,16.8167,70.47,99,100,0.87,CD,2021-11-03 20:44:18
506,Maragogi,-9.0122,-35.2225,79.41,81,26,16.89,BR,2021-11-03 20:44:18
507,Port Shepstone,-30.7414,30.455,65.37,80,54,12.64,ZA,2021-11-03 20:44:18
508,Ossora,59.2353,163.0719,23.5,85,100,9.35,RU,2021-11-03 20:44:19
509,Yanam,16.7333,82.2167,74.46,96,99,5.73,IN,2021-11-03 20:44:19
510,Tuzla,44.5428,18.6694,55.36,81,75,6.91,BA,2021-11-03 20:44:19
511,Gat,31.61,34.7642,68.81,75,0,7.25,IL,2021-11-03 20:44:20
512,Sobolevo,54.4299,31.8996,46.02,85,95,12.82,RU,2021-11-03 20:44:20
513,Santa Isabel Do Rio Negro,-0.4139,-65.0192,86.23,69,99,1.68,BR,2021-11-03 20:44:20
514,Jingdezhen,29.2947,117.2079,60.91,90,88,2.17,CN,2021-11-03 20:44:20
515,Urucara,-2.5364,-57.76,83.14,69,99,0.4,BR,2021-11-03 20:44:21
516,Nuuk,64.1835,-51.7216,36.21,93,90,44.87,GL,2021-11-03 20:40:54
517,Northam,51.0333,-4.2167,48.38,79,7,10.16,GB,2021-11-03 20:44:21
518,Kajaani,64.2273,27.7285,39.25,100,90,6.91,FI,2021-11-03 20:44:21
519,Wokha,26.1,94.2667,48.54,97,24,3.29,IN,2021-11-03 20:44:22
520,Sebrovo,50.0981,43.2976,49.6,51,100,17.38,RU,2021-11-03 20:44:22
521,Tilichiki,60.4667,166.1,12.07,95,100,4.88,RU,2021-11-03 20:44:22
522,Marsh Harbour,26.5412,-77.0636,78.28,62,7,9.51,BS,2021-11-03 20:44:23
523,Pimentel,-6.8367,-79.9342,71.89,60,0,16.11,PE,2021-11-03 20:44:23
524,Innisfail,-17.5333,146.0333,76.23,79,72,11.07,AU,2021-11-03 20:44:23
525,Dengzhou,37.8086,120.7508,55.42,68,0,8.93,CN,2021-11-03 20:44:23
526,Oktyabrskoye,43.0645,44.7417,44.74,100,100,4.47,RU,2021-11-03 20:44:24
527,Bairiki,1.3292,172.9752,84.2,74,75,8.05,KI,2021-11-03 20:44:24
528,Thunder Bay,48.4001,-89.3168,37.29,59,90,4.61,CA,2021-11-03 20:44:24
529,Majengo,-5.15,38.9833,74.8,91,23,3.65,TZ,2021-11-03 20:44:25
530,Tangier,35.7806,-5.8137,61.86,72,40,6.91,MA,2021-11-03 20:42:11
531,Yancheng,33.3856,120.1253,55.81,75,57,2.77,CN,2021-11-03 20:44:25
532,Nemuro,43.3236,145.575,50.9,89,100,24.27,JP,2021-11-03 20:42:32
533,Altamira,-3.2033,-52.2064,89.69,58,40,4.61,BR,2021-11-03 20:43:53
534,Alofi,-19.0595,-169.9187,80.49,78,75,11.5,NU,2021-11-03 20:44:26
535,Doume,4.2333,13.45,67.17,98,100,1.3,CM,2021-11-03 20:44:26
536,Muzhi,65.3667,64.6667,28.4,87,100,6.98,RU,2021-11-03 20:44:26
537,Koslan,63.4564,48.8989,34.32,90,100,9.93,RU,2021-11-03 20:44:27
538,Umm Lajj,25.0213,37.2685,80.69,64,0,10.31,SA,2021-11-03 20:44:27
539,Illapel,-31.6308,-71.1653,70.2,44,6,8.43,CL,2021-11-03 20:44:27
540,Broome,42.2506,-75.833,46.02,62,90,3.0,US,2021-11-03 20:44:28
541,Svetlaya,46.5389,138.3297,39.69,82,48,5.88,RU,2021-11-03 20:44:28
542,Havelock,34.8791,-76.9013,57.94,66,40,5.01,US,2021-11-03 20:44:28
543,Madison,34.7334,-86.5667,50.94,75,90,6.91,US,2021-11-03 20:44:29
544,Maltahohe,-24.8333,16.9833,66.92,16,16,9.17,NA,2021-11-03 20:44:29
545,Meulaboh,4.1363,96.1285,75.63,90,100,3.11,ID,2021-11-03 20:44:29
546,Abha,18.2164,42.5053,58.82,23,0,4.61,SA,2021-11-03 20:44:30
547,Zhigansk,66.7697,123.3711,-8.84,97,100,9.64,RU,2021-11-03 20:44:30
548,Dudinka,69.4058,86.1778,8.29,94,100,21.99,RU,2021-11-03 20:44:30
549,Saskatoon,52.1168,-106.6345,46.17,48,20,1.99,CA,2021-11-03 20:44:07
550,Hay River,60.8156,-115.7999,46.38,49,75,11.5,CA,2021-11-03 20:44:31
551,Balagansk,54.0103,103.0544,6.85,74,100,15.82,RU,2021-11-03 20:45:31
552,Richards Bay,-28.783,32.0377,63.88,81,0,4.38,ZA,2021-11-03 20:45:31
553,Tatarskaya Kargala,51.9495,55.1731,19.42,39,0,9.31,RU,2021-11-03 20:45:31
554,Pocoes,-14.5297,-40.3653,72.19,79,100,3.91,BR,2021-11-03 20:45:32
555,Payo,-3.7508,103.6372,71.62,97,96,1.34,ID,2021-11-03 20:45:32
556,Chunskiy,56.0815,99.6342,6.66,76,100,11.88,RU,2021-11-03 20:45:32
557,Ajaccio,42.0,8.9167,57.25,82,75,6.91,FR,2021-11-03 20:45:33
558,Inuvik,68.3499,-133.7218,18.36,89,20,3.44,CA,2021-11-03 20:45:33
559,Sambava,-14.2667,50.1667,73.83,88,3,3.58,MG,2021-11-03 20:45:33
560,Bosansko Grahovo,44.1794,16.3639,57.85,96,100,15.75,BA,2021-11-03 20:45:34
561,Suntar,62.1444,117.6319,8.22,89,100,6.31,RU,2021-11-03 20:45:34
562,Luderitz,-26.6481,15.1594,58.96,61,3,15.5,NA,2021-11-03 20:45:34
563,Bandarbeyla,9.4942,50.8122,77.04,69,31,8.9,SO,2021-11-03 20:45:35
564,Senanga,-16.1167,23.2667,77.74,54,98,2.91,ZM,2021-11-03 20:45:35
565,Khor,47.8861,134.9464,32.65,69,77,3.06,RU,2021-11-03 20:45:35
566,Nova Olinda Do Norte,-3.8881,-59.0942,87.42,60,66,1.52,BR,2021-11-03 20:45:36
567,Camacha,33.0833,-16.3333,69.53,83,40,8.05,PT,2021-11-03 20:45:36
568,Hervey Bay,-25.2986,152.8535,67.03,54,45,9.44,AU,2021-11-03 20:45:36
569,Mengcheng,33.2579,116.5655,60.4,68,91,3.89,CN,2021-11-03 20:45:37
570,Thomasville,35.8826,-80.082,54.99,51,90,6.33,US,2021-11-03 20:45:37
571,Dharchula,29.85,80.5333,50.74,43,0,7.09,IN,2021-11-03 20:45:37
572,Lososina,48.9975,140.3106,34.48,86,70,3.15,RU,2021-11-03 20:45:37
573,Paramonga,-10.6667,-77.8333,67.75,76,56,9.13,PE,2021-11-03 20:45:38
574,Labuhan,-6.8844,112.2051,80.22,80,97,1.83,ID,2021-11-03 20:45:38
575,Rabo De Peixe,37.8,-25.5833,67.28,98,75,11.5,PT,2021-11-03 20:45:38
576,Lokosovo,61.1333,74.8167,16.66,80,100,13.35,RU,2021-11-03 20:45:39
577,Prince Rupert,54.3161,-130.3201,47.89,84,100,9.22,CA,2021-11-03 20:41:58
578,Mahanoro,-19.9,48.8,73.54,93,4,7.85,MG,2021-11-03 20:45:39
579,Banda Aceh,5.5577,95.3222,78.87,80,97,0.45,ID,2021-11-03 20:45:39
580,Constitucion,-35.3333,-72.4167,54.41,73,100,12.48,CL,2021-11-03 20:45:40
581,Japura,-0.3167,102.35,73.42,99,92,2.39,ID,2021-11-03 20:45:40
582,Saldanha,-33.0117,17.9442,59.05,85,5,7.2,ZA,2021-11-03 20:45:40
583,Banjarmasin,-3.3244,114.591,75.61,94,100,2.48,ID,2021-11-03 20:45:41
584,Dabat,12.9842,37.765,55.47,54,16,2.44,ET,2021-11-03 20:45:41
585,Arenillas,41.3471,-2.8462,35.82,81,7,9.19,ES,2021-11-03 20:45:41
586,Qasigiannguit,68.8193,-51.1922,35.85,76,71,13.04,GL,2021-11-03 20:45:42
587,Karratha,-20.7377,116.8463,71.2,71,13,7.94,AU,2021-11-03 20:45:42
588,Boyolangu,-8.1181,111.8935,75.72,92,67,0.31,ID,2021-11-03 20:45:42
589,Lasa,46.6166,10.7002,44.06,98,100,2.95,IT,2021-11-03 20:45:42
590,Agirish,61.9247,63.0231,22.69,79,91,12.03,RU,2021-11-03 20:45:43
591,The Valley,18.217,-63.0578,84.06,78,75,12.66,AI,2021-11-03 20:45:43
592,Bajil,15.0584,43.2851,83.62,48,11,1.54,YE,2021-11-03 20:45:44
593,Dehloran,32.6941,47.2679,80.37,30,95,4.72,IR,2021-11-03 20:45:44
594,Campbell River,50.0163,-125.2446,51.33,98,90,1.01,CA,2021-11-03 20:45:45
595,Novikovo,51.1537,37.8879,49.48,92,100,10.11,RU,2021-11-03 20:46:45
596,Rawson,-43.3002,-65.1023,78.46,26,98,32.21,AR,2021-11-03 20:46:45
597,Enshi,30.3,109.4833,57.47,98,100,1.3,CN,2021-11-03 20:46:46
598,Toucheng,24.8592,121.8233,75.88,92,100,5.35,TW,2021-11-03 20:46:46
599,Acajutla,13.5928,-89.8275,93.54,62,65,4.5,SV,2021-11-03 20:46:46
600,Nikel,69.4128,30.222,39.38,98,100,17.22,RU,2021-11-03 20:46:46
601,Hirara,24.8,125.2833,74.25,64,46,13.38,JP,2021-11-03 20:46:47
602,Rassvet,46.8333,40.75,51.69,94,82,6.71,RU,2021-11-03 20:46:47
603,Gamba,-2.65,10.0,76.26,90,56,4.41,GA,2021-11-03 20:46:47
604,High Prairie,55.4334,-116.4858,47.32,41,100,4.5,CA,2021-11-03 20:46:48
605,Oksfjord,70.2396,22.3479,41.92,95,100,10.4,NO,2021-11-03 20:46:48
606,Kyenjojo,0.6328,30.6214,61.54,97,97,0.6,UG,2021-11-03 20:46:48
607,Zhengjiatun,43.5064,123.5064,39.47,88,2,6.17,CN,2021-11-03 20:46:49
608,Labrea,-7.2586,-64.7981,79.52,76,95,2.01,BR,2021-11-03 20:46:49
609,Kawalu,-7.3817,108.2082,72.1,98,93,0.67,ID,2021-11-03 20:46:49
610,Zhangzhou,24.5133,117.6556,72.14,88,97,0.78,CN,2021-11-03 20:46:49
611,Itarema,-2.9248,-39.9167,80.38,74,2,14.81,BR,2021-11-03 20:46:50
612,Moses Lake,47.1301,-119.2781,48.88,87,90,0.0,US,2021-11-03 20:46:50
613,Alta Floresta,-9.8756,-56.0861,80.29,71,92,4.7,BR,2021-11-03 20:46:50
614,Yatou,37.15,122.3833,53.55,76,0,5.68,CN,2021-11-03 20:46:51
615,Mitu,1.1983,-70.1733,81.01,80,94,2.91,CO,2021-11-03 20:46:51
616,Yulara,-25.2406,130.9889,69.64,94,100,5.75,AU,2021-11-03 20:46:51
617,Jasper,37.2001,-94.3502,53.65,55,90,0.0,US,2021-11-03 20:44:00
618,Najran,17.4924,44.1277,65.05,34,0,0.74,SA,2021-11-03 20:46:52
619,Sinop,41.7711,34.8709,55.17,85,93,6.71,TR,2021-11-03 20:46:52
620,Vasterhaninge,59.1167,18.1,47.55,91,100,8.9,SE,2021-11-03 20:46:52
621,Gravdal,68.1214,13.5031,46.08,100,40,2.3,NO,2021-11-03 20:46:53
622,Beringovskiy,63.05,179.3167,-0.35,84,4,9.15,RU,2021-11-03 20:46:53
623,Ormara,25.2088,64.6357,78.24,56,0,8.75,PK,2021-11-03 20:46:53
624,Poso,-1.3959,120.7524,76.12,88,80,4.79,ID,2021-11-03 20:46:54
625,Caravelas,-17.7125,-39.2481,76.03,86,46,7.94,BR,2021-11-03 20:46:54
626,Disna,55.568,28.1971,45.55,92,100,11.97,BY,2021-11-03 20:46:54
627,Lenine,45.2986,35.7771,54.72,91,91,4.79,UA,2021-11-03 20:46:55
628,Sawtell,-30.3833,153.1,66.22,83,90,9.22,AU,2021-11-03 20:46:55
629,Nueve De Julio,-35.4444,-60.8831,75.7,72,88,8.55,AR,2021-11-03 20:46:55
630,Kabompo,-13.5927,24.2008,66.9,73,84,3.31,ZM,2021-11-03 20:46:56
631,Mikuni,36.2171,136.1519,46.31,75,19,8.03,JP,2021-11-03 20:46:56
632,Ginir,7.1333,40.7,55.38,35,22,5.95,ET,2021-11-03 20:46:56
633,Nurota,40.5614,65.6886,48.29,54,86,9.35,UZ,2021-11-03 20:46:57
634,Kiunga,-6.1219,141.2906,72.28,99,94,1.7,PG,2021-11-03 20:46:57
635,Capaccio,40.4244,15.0809,66.06,95,97,8.1,IT,2021-11-03 20:46:57
636,Tabas,33.5959,56.9244,68.18,31,73,1.03,IR,2021-11-03 20:46:58
637,Port Macquarie,-31.4333,152.9167,63.9,71,93,9.42,AU,2021-11-03 20:46:49
638,Katangli,51.7102,143.2326,30.88,84,12,6.42,RU,2021-11-03 20:46:58
639,Talnakh,69.4865,88.3972,1.4,97,100,13.11,RU,2021-11-03 20:46:58
640,Santarem,-2.4431,-54.7083,87.93,66,20,6.91,BR,2021-11-03 20:46:38
641,Allapalli,19.4167,80.0667,69.31,94,96,1.83,IN,2021-11-03 20:46:59
642,Yenagoa,4.9247,6.2642,76.78,91,45,4.16,NG,2021-11-03 20:46:59
643,Carlsbad,33.1581,-117.3506,90.99,75,20,3.0,US,2021-11-03 20:47:59
644,Sakaraha,-22.9,44.5333,69.13,86,0,3.11,MG,2021-11-03 20:48:00
645,Bogashevo,56.3683,85.1447,-2.25,84,0,6.71,RU,2021-11-03 20:48:00
646,Nabire,-3.3667,135.4833,75.49,92,73,3.06,ID,2021-11-03 20:48:01
647,Coihaique,-45.5752,-72.0662,52.41,62,75,11.5,CL,2021-11-03 20:44:13
648,Sadiqabad,28.3062,70.1307,71.38,29,0,2.53,PK,2021-11-03 20:48:01
649,Colquechaca,-18.6667,-66.0167,48.0,39,55,11.86,BO,2021-11-03 20:48:02
650,Bitkine,11.9801,18.2138,85.42,21,15,4.07,TD,2021-11-03 20:48:03
651,Tres Arroyos,-38.3739,-60.2798,78.91,44,57,17.52,AR,2021-11-03 20:48:03
652,Krasnyy Chikoy,50.3643,108.7512,20.7,78,73,10.02,RU,2021-11-03 20:48:04
653,Moyale,3.5167,39.0584,70.21,62,22,3.36,KE,2021-11-03 20:48:04
654,Kapuskasing,49.4169,-82.4331,28.49,69,90,5.75,CA,2021-11-03 20:48:05
655,Jipijapa,-1.3333,-80.5833,76.5,63,85,6.31,EC,2021-11-03 20:48:05
656,Pedernales,18.0384,-71.744,83.34,68,54,2.1,DO,2021-11-03 20:48:05
657,Aklavik,68.2191,-135.0107,18.32,93,80,7.85,CA,2021-11-03 20:48:06
658,Kichmengskiy Gorodok,59.9816,45.7854,38.3,83,100,8.97,RU,2021-11-03 20:48:06
659,Raton,36.9034,-104.4391,57.81,42,75,10.36,US,2021-11-03 20:48:06
660,Redlands,34.0556,-117.1825,88.72,26,1,4.61,US,2021-11-03 20:48:07
661,Waipawa,-41.4122,175.5153,51.46,71,100,14.45,NZ,2021-11-03 20:48:07
662,Porto-Vecchio,41.591,9.2795,62.13,82,90,14.97,FR,2021-11-03 20:48:07
663,Tianpeng,30.9866,103.9393,55.87,86,95,1.21,CN,2021-11-03 20:48:08
664,Carutapera,-1.195,-46.02,80.02,78,100,7.0,BR,2021-11-03 20:48:08
665,Barcelos,41.5388,-8.6151,52.84,83,55,4.14,PT,2021-11-03 20:48:09
